ti,time,x,y,z,vx,vy,vz,ax,ay,az,quaternion,boost,u roll,u pitch,u yaw,theta roll,theta pitch,theta yaw,wx,wy,wz,ball sx,ball sy,ball sz,ball vx,ball vy,ball vz
363.660888671875,363.660888671875,-1817.2799072265625,0.0,434.739990234375,-29.160999298095703,0.08100000023841858,-384.1109924316406,985.0865007941554,113.45266843423921,-11.598859179972937,-0.399 -0.000i +0.917j -0.000k,1,0.0,0.86094681391,-0.0,0.14841264486312866,-0.011696603149175644,0.11466506123542786,-0.12410999834537506,0.9840099811553955,0.04360999912023544,1000.0,0.0,682.1599731445312,0.0,0.0,-386.22100830078125
363.660888671875,363.67755126953125,-1817.760009765625,0.0,428.1999816894531,-29.160999298095703,0.08100000023841858,-394.9309997558594,984.6884795413469,114.17216248725384,-27.473098251473992,-0.399 -0.000i +0.917j -0.000k,1,0.0,0.86094681391,-0.0,0.1486043930053711,-0.027707528322935104,0.11543205380439758,-0.11780999600887299,0.9378100037574768,0.04440999776124954,1000.0,0.0,675.5899658203125,0.0,0.0,-396.84100341796875
363.660888671875,363.6942138671875,-1818.239990234375,0.0,421.47998046875,-29.160999298095703,0.08100000023841858,-405.7510070800781,984.074315952429,114.86594472335483,-42.48542081196966,-0.399 -0.000i +0.917j -0.000k,1,0.0,0.86094681391,-0.0,0.1487002670764923,-0.04285558685660362,0.11619904637336731,-0.11180999875068665,0.893809974193573,0.04500999674201012,1000.0,0.0,668.8399658203125,0.0,0.0,-407.46099853515625
363.660888671875,363.71087646484375,2199.159912109375,0.0,100.90999603271484,-50.000999450683594,0.0,56.240997314453125,-2.1867107368188385,-1.9116833167668739e-07,991.6635890523328,-0.399 -0.000i +0.917j -0.000k,1,0.0,0.86094681391,-0.0,-3.1415927410125732,1.5685912370681763,3.1415927410125732,0.0,-0.1779100000858307,0.0,-1201.659912109375,0.0,219.84999084472656,-99.94099426269531,0.0,1188.5509033203125
363.660888671875,363.7275390625,2198.320068359375,0.0,101.93999481201172,-50.060997009277344,0.0,63.04099655151367,-7.415801056683847,-6.483099443298633e-07,991.6382714733675,-0.399 -0.000i +0.917j -0.000k,1,0.0,0.86094681391,-0.0,-3.1415927410125732,1.563318133354187,3.1415927410125732,0.0,-0.35460999608039856,0.0,-1203.3199462890625,0.0,239.51998901367188,-99.88099670410156,0.0,1177.1109619140625
363.660888671875,363.74420166015625,2197.47998046875,0.0,103.06999969482422,-50.21099853515625,0.0,69.84099578857422,-15.49658966032689,-1.3547549486827524e-06,991.5449113705839,-0.399 -0.000i +0.917j -0.000k,1,0.0,0.86094681391,-0.0,-3.1415927410125732,1.555168867111206,3.1415927410125732,0.0,-0.5301100015640259,0.0,-1204.97998046875,0.0,258.989990234375,-99.82099914550781,0.0,1165.6708984375
363.660888671875,363.7608642578125,2196.639892578125,0.0,104.31999969482422,-50.520999908447266,0.0,76.64099884033203,-26.33262222887572,-2.3020710400361915e-06,991.3163211420215,-0.399 -0.000i +0.917j -0.000k,1,0.0,0.86094681391,-0.0,-3.1415927410125732,1.5442392826080322,3.1415927410125732,0.0,-0.7044100165367126,0.0,-1206.6400146484375,0.0,278.2799987792969,-99.76099395751953,0.0,1154.23095703125
363.660888671875,363.7775573730469,2195.7900390625,0.0,105.68999481201172,-51.04099655151367,0.0,83.43099975585938,-40.110626425500016,-3.5065824698080595e-06,990.8544763000036,-0.399 -0.000i +0.917j -0.000k,1,0.0,0.86094681391,-0.0,-3.1415927410125732,1.5303375720977783,3.1415927410125732,0.0,-0.8775100111961365,0.0,-1208.2999267578125,0.0,297.3699951171875,-99.70099639892578,0.0,1142.8109130859375
363.660888671875,363.7942199707031,2194.929931640625,0.0,107.15999603271484,-51.810997009277344,0.0,90.21099853515625,-56.72863170703732,-4.959374689636669e-06,990.0420788535446,-0.399 -0.000i +0.917j -0.000k,1,0.0,0.86094681391,-0.0,-3.1415927410125732,1.5135596990585327,3.1415927410125732,0.0,-1.0494099855422974,0.0,-1209.9599609375,0.0,316.2799987792969,-99.64099884033203,0.0,1131.3909912109375
363.660888671875,363.8108825683594,2194.050048828125,0.0,108.75,-52.89099884033203,0.0,96.97100067138672,-76.08009782520679,-6.651133654834929e-06,988.7432802658672,-0.399 -0.000i +0.917j -0.000k,1,0.0,0.86094681391,-0.0,-3.1415927410125732,1.4940013885498047,3.1415927410125732,0.0,-1.2201099395751953,0.0,-1211.6199951171875,0.0,334.989990234375,-99.58099365234375,0.0,1119.970947265625
363.660888671875,363.8275451660156,2193.14990234375,0.0,110.44999694824219,-54.330997467041016,0.0,103.70099639892578,-98.24102665325074,-8.588503660447231e-06,986.7877969645325,-0.399 -0.000i +0.917j -0.000k,1,0.0,0.86094681391,-0.0,-3.1415927410125732,1.471566915512085,3.1415927410125732,0.0,-1.3898099660873413,0.0,-1213.280029296875,0.0,353.5199890136719,-99.52099609375,0.0,1108.5609130859375
363.660888671875,363.8442077636719,2192.219970703125,0.0,112.25999450683594,-56.180999755859375,0.0,110.40099334716797,-123.18311999348953,-1.0769010799363294e-05,983.9854544172235,-0.399 -0.000i +0.917j -0.000k,1,0.0,0.86094681391,-0.0,-3.1415927410125732,1.4462562799453735,3.1415927410125732,0.0,-1.5583100318908691,0.0,-1214.93994140625,0.0,371.8500061035156,-99.46099853515625,0.0,1097.1610107421875
363.660888671875,363.8608703613281,2191.25,0.0,114.18999481201172,-58.48099899291992,0.0,117.04100036621094,-150.77209286500494,-1.3180915505238533e-05,980.1373534199715,-0.399 -0.000i +0.917j -0.000k,1,0.0,0.86094681391,-0.0,-3.1415927410125732,1.4181652069091797,3.1415927410125732,0.0,-1.7256100177764893,0.0,-1216.5999755859375,0.0,390.0,-99.4010009765625,0.0,1085.760986328125
363.660888671875,363.8775329589844,2190.239990234375,0.0,116.2199935913086,-61.29099655151367,0.0,123.6209945678711,-180.86008339510636,-1.5811291282105757e-05,975.0338895599039,-0.399 -0.000i +0.917j -0.000k,1,0.0,0.86094681391,-0.0,-3.1415927410125732,1.3873897790908813,3.1415927410125732,0.0,-1.8918099403381348,0.0,-1218.260009765625,0.0,407.9499816894531,-99.34099578857422,0.0,1074.3709716796875
363.660888671875,363.89422607421875,2189.179931640625,0.0,118.36000061035156,-64.64099884033203,0.0,130.09100341796875,-213.56305145337438,-1.8670275664132562e-05,968.3967568150581,-0.399 -0.000i +0.917j -0.000k,1,0.0,0.86094681391,-0.0,-3.1415927410125732,1.3537380695343018,3.1415927410125732,0.0,-2.0569100379943848,0.0,-1219.919921875,0.0,425.7200012207031,-99.28099822998047,0.0,1062.990966796875
363.660888671875,363.910888671875,2188.06005859375,0.0,120.61000061035156,-68.59099578857422,0.0,136.44100952148438,-248.60218099169828,-2.1733493777283483e-05,959.9991724799404,-0.399 -0.000i +0.917j -0.000k,1,0.0,0.86094681391,-0.0,-3.1415927410125732,1.3174018859863281,3.1415927410125732,0.0,-2.2208099365234375,0.0,-1221.5799560546875,0.0,443.28997802734375,-99.22100067138672,0.0,1051.6109619140625
363.660888671875,363.92755126953125,2186.85986328125,0.0,122.95999908447266,-73.1709976196289,0.0,142.63099670410156,-285.8632362579878,-2.4990958814534946e-05,949.5702531735657,-0.399 -0.000i +0.917j -0.000k,1,0.0,0.86094681391,-0.0,-3.1415927410125732,1.2783812284469604,3.1415927410125732,0.0,-2.3837099075317383,0.0,-1223.239990234375,0.0,460.67999267578125,-99.16099548339844,0.0,1040.23095703125
363.660888671875,363.9442138671875,2185.579833984375,0.0,125.40999603271484,-78.4209976196289,0.0,148.62100219726562,-325.29492990870494,-2.8438187093735877e-05,936.7948890401199,-0.399 -0.000i +0.917j -0.000k,1,0.0,0.86094681391,-0.0,-3.1415927410125732,1.2365802526474,3.1415927410125732,0.0,-2.545409917831421,0.0,-1224.9000244140625,0.0,477.8699951171875,-99.10099792480469,0.0,1028.8709716796875
363.660888671875,363.96087646484375,2184.199951171875,0.0,127.95999908447266,-84.38099670410156,0.0,154.38099670410156,-366.54479643154747,-3.204436509994537e-05,921.4371208959155,-0.399 -0.000i +0.917j -0.000k,1,0.0,-0.77321520856,-0.0,-3.1415927410125732,1.1921906471252441,3.1415927410125732,0.0,-2.7061100006103516,0.0,-1226.5599365234375,0.0,494.8799743652344,-99.04100036621094,0.0,1017.5109252929688
363.660888671875,363.9775390625,2182.7099609375,0.0,130.59999084472656,-91.09099578857422,0.0,159.8509979248047,-409.67165106718585,-3.581463462500942e-05,903.0894716847745,-0.399 -0.000i +0.917j -0.000k,1,0.0,-0.77321520856,-0.0,-3.1415927410125732,1.1449248790740967,3.1415927410125732,0.0,-2.865609884262085,0.0,-1228.199951171875,0.0,511.69000244140625,-98.98099517822266,0.0,1006.1509399414062
363.660888671875,363.9942321777344,2181.099853515625,0.0,133.3199920654297,-98.55099487304688,0.0,164.99099731445312,-450.10532110550423,-3.9349458465512535e-05,883.6326473532479,-0.399 -0.000i +0.917j -0.000k,1,0.0,-0.77321520856,-0.0,-3.1415927410125732,1.0996724367141724,3.1415927410125732,0.0,-2.6743099689483643,0.0,-1229.8399658203125,0.0,528.3200073242188,-98.9209976196289,0.0,994.8009643554688
363.660888671875,364.0108947753906,2179.35986328125,0.0,136.12998962402344,-106.72100067138672,0.0,169.781005859375,-486.96941483108304,-4.257222002132051e-05,863.8647142782662,-0.399 -0.000i +0.917j -0.000k,1,0.0,-0.77321520856,-0.0,-3.1415927410125732,1.057487964630127,3.1415927410125732,0.0,-2.4850099086761475,0.0,-1231.47998046875,0.0,544.760009765625,-98.86100006103516,0.0,983.4609375
363.660888671875,364.0275573730469,2177.469970703125,0.0,139.00999450683594,-115.53099822998047,0.0,174.21099853515625,-520.3796551599723,-4.5493036111464574e-05,844.1602158663877,-0.399 -0.000i +0.917j -0.000k,1,0.0,-0.77321520856,-0.0,-3.1415927410125732,1.0183714628219604,3.1415927410125732,0.0,-2.2977099418640137,0.0,-1233.1199951171875,0.0,561.010009765625,-98.80099487304688,0.0,972.1209716796875
363.660888671875,364.0442199707031,2175.429931640625,0.0,141.97000122070312,-124.91099548339844,0.0,178.30101013183594,-550.3866122801004,-4.811632772235874e-05,824.9097117738598,-0.399 -0.000i +0.917j -0.000k,1,0.0,-0.77321520856,-0.0,-3.1415927410125732,0.9824188351631165,3.1415927410125732,0.0,-2.11260986328125,0.0,-1234.760009765625,0.0,577.0700073242188,-98.74099731445312,0.0,960.7809448242188
363.660888671875,364.0608825683594,2173.22998046875,0.0,144.989990234375,-134.81100463867188,0.0,182.05101013183594,-577.2110772671408,-5.04613970236384e-05,806.3676753417787,-0.399 -0.000i +0.917j -0.000k,1,0.0,-0.77321520856,-0.0,-3.1415927410125732,0.9495341181755066,3.1415927410125732,0.0,-1.9295099973678589,0.0,-1236.4000244140625,0.0,592.9400024414062,-98.68099975585938,0.0,949.4609375
363.660888671875,364.0775451660156,2170.849853515625,0.0,148.0699920654297,-145.18099975585938,0.0,185.47100830078125,-601.0698595321794,-5.2547198096751666e-05,788.7436082263765,-0.399 -0.000i +0.917j -0.000k,1,0.0,-0.77321520856,-0.0,-3.1415927410125732,0.919621467590332,3.1415927410125732,0.0,-1.7483099699020386,0.0,-1238.0399169921875,0.0,608.6300048828125,-98.6209945678711,0.0,938.1409301757812
363.660888671875,364.0942077636719,2168.300048828125,0.0,151.1999969482422,-155.96099853515625,0.0,188.5810089111328,-622.0242769799956,-5.437909152339831e-05,772.3258731931168,-0.399 -0.000i +0.917j -0.000k,1,0.0,-0.77321520856,-0.0,-3.1415927410125732,0.8927768468856812,3.1415927410125732,0.0,-1.5690100193023682,0.0,-1239.679931640625,0.0,624.1199951171875,-98.56099700927734,0.0,926.8209838867188
363.660888671875,364.11090087890625,2165.56005859375,0.0,154.37998962402344,-167.1009979248047,0.0,191.41099548339844,-640.355301115455,-5.598164061363555e-05,757.196502824288,-0.399 -0.000i +0.917j -0.000k,1,0.0,-0.77321520856,-0.0,-3.1415927410125732,0.868808388710022,3.1415927410125732,0.0,-1.3917099237442017,0.0,-1241.3199462890625,0.0,639.4299926757812,-98.5009994506836,0.0,915.510986328125
363.660888671875,364.1275634765625,2162.6298828125,0.0,157.61000061035156,-178.55101013183594,0.0,193.97100830078125,-656.1113827921706,-5.735908107577978e-05,743.5854415778614,-0.399 -0.000i +0.917j -0.000k,1,0.0,-0.77321520856,-0.0,-3.1415927410125732,0.8478119969367981,3.1415927410125732,0.0,-1.2163100242614746,0.0,-1242.9599609375,0.0,654.5499877929688,-98.44099426269531,0.0,904.2109375
363.660888671875,364.14422607421875,2159.5,0.0,160.87998962402344,-190.27099609375,0.0,196.30101013183594,-669.4767851660681,-5.8527521707174285e-05,731.5752112255465,-0.399 -0.000i +0.917j -0.000k,1,0.0,-0.77321520856,-0.0,-3.1415927410125732,0.8296918869018555,3.1415927410125732,0.0,-1.0428099632263184,0.0,-1244.5999755859375,0.0,669.47998046875,-98.38099670410156,0.0,892.9109497070312
363.660888671875,364.160888671875,2156.169921875,0.0,164.1699981689453,-202.22100830078125,0.0,198.43099975585938,-680.5506630605709,-5.949563089813351e-05,721.2851381831005,-0.399 -0.000i +0.917j -0.000k,1,0.0,-0.77321520856,-0.0,-3.1415927410125732,0.8144479393959045,3.1415927410125732,0.0,-0.871209979057312,0.0,-1246.239990234375,0.0,684.219970703125,-98.32099914550781,0.0,881.6109619140625
363.660888671875,364.17755126953125,2152.639892578125,0.0,167.5,-214.3610076904297,0.0,200.37100219726562,-689.4190440823439,-6.02709294211892e-05,712.8133256418424,-0.399 -0.000i +0.917j -0.000k,1,0.0,-0.77321520856,-0.0,-3.1415927410125732,0.8020802140235901,3.1415927410125732,0.0,-0.7015100121498108,0.0,-1247.8800048828125,0.0,698.7699584960938,-98.26099395751953,0.0,870.3309326171875
363.660888671875,364.1942138671875,2148.909912109375,0.0,170.86000061035156,-226.6510009765625,0.0,202.18099975585938,-696.2212860387306,-6.086560032327449e-05,706.1709257839586,-0.399 -0.000i +0.917j -0.000k,1,0.0,-0.77321520856,-0.0,-3.1415927410125732,0.7924928069114685,3.1415927410125732,0.0,-0.5336099863052368,0.0,-1249.52001953125,0.0,713.1399536132812,-98.20099639892578,0.0,859.0509643554688
363.660888671875,364.2109069824219,2144.97998046875,0.0,174.25,-239.05099487304688,0.0,203.88099670410156,-701.0120451925541,-6.128442180683003e-05,701.415403345941,-0.399 -0.000i +0.917j -0.000k,1,0.0,-0.77321520856,-0.0,-3.1415927410125732,0.7856857776641846,3.1415927410125732,0.0,-0.36750999093055725,0.0,-1251.159912109375,0.0,727.3099975585938,-98.14099884033203,0.0,847.7709350585938
363.660888671875,364.2275695800781,2140.83984375,0.0,177.6699981689453,-251.531005859375,0.0,205.50100708007812,-703.897703756146,-6.15366941006008e-05,698.5194902097018,-0.399 -0.000i +0.917j -0.000k,1,0.0,-0.77321520856,-0.0,-3.1415927410125732,0.7815632224082947,3.1415927410125732,0.0,-0.2032099962234497,0.0,-1252.7999267578125,0.0,741.2999877929688,-98.08099365234375,0.0,836.5009765625
363.660888671875,364.2442321777344,2136.489990234375,0.0,181.1199951171875,-264.0509948730469,0.0,207.0810089111328,-704.8346481055872,-6.161860438033773e-05,697.5740637279099,-0.399 -0.000i +0.917j -0.000k,1,0.0,-3.7706422497e-07,-0.0,-3.1415927410125732,0.7802209854125977,3.1415927410125732,0.0,-0.040709998458623886,0.0,-1254.43994140625,0.0,755.0999755859375,-98.02099609375,0.0,825.240966796875
363.660888671875,364.2608947753906,2131.93994140625,0.0,184.58999633789062,-276.5710144042969,0.0,208.6510009765625,-703.897703756146,-6.15366941006008e-05,698.5194902097018,-0.399 -0.000i +0.917j -0.000k,1,0.0,-3.7706422497e-07,-0.0,-3.1415927410125732,0.7815632224082947,3.1415927410125732,0.0,0.11990999430418015,0.0,-1256.0799560546875,0.0,768.7099609375,-97.96099853515625,0.0,813.98095703125
363.660888671875,364.2775573730469,2127.169921875,0.0,188.08999633789062,-289.08099365234375,0.0,210.24099731445312,-702.5570124089688,-6.141948713590361e-05,699.8679160177161,-0.399 -0.000i +0.917j -0.000k,1,0.0,-3.7706422497e-07,-0.0,-3.1415927410125732,0.783480703830719,3.1415927410125732,0.0,0.11420999467372894,0.0,-1257.719970703125,0.0,782.1399536132812,-97.9010009765625,0.0,802.720947265625
363.660888671875,364.2942199707031,2122.199951171875,0.0,191.6199951171875,-301.5610046386719,0.0,211.8509979248047,-701.2809838383145,-6.130793317089283e-05,701.1465162594494,-0.399 -0.000i +0.917j -0.000k,1,0.0,-3.7706422497e-07,-0.0,-3.1415927410125732,0.7853022813796997,3.1415927410125732,0.0,0.10870999842882156,0.0,-1259.3599853515625,0.0,795.3800048828125,-97.84099578857422,0.0,791.48095703125
363.660888671875,364.3108825683594,2117.010009765625,0.0,195.1699981689453,-314.02099609375,0.0,213.49099731445312,-700.0025864488148,-6.119617211715328e-05,702.4228317195892,-0.399 -0.000i +0.917j -0.000k,1,0.0,-3.7706422497e-07,-0.0,-3.1415927410125732,0.7871239185333252,3.1415927410125732,0.0,0.10350999236106873,0.0,-1260.989990234375,0.0,808.4299926757812,-97.78099822998047,0.0,780.240966796875
363.660888671875,364.32757568359375,2111.619873046875,0.0,198.75,-326.46099853515625,0.0,215.1510009765625,-698.8568278449643,-6.10960067147915e-05,703.5627830765857,-0.399 -0.000i +0.917j -0.000k,1,0.0,-3.7706422497e-07,-0.0,-3.1415927410125732,0.7887537479400635,3.1415927410125732,0.0,0.09850999712944031,0.0,-1262.6099853515625,0.0,821.2999877929688,-97.72100067138672,0.0,769.0009765625
363.660888671875,364.34423828125,2106.030029296875,0.0,202.36000061035156,-338.8810119628906,0.0,216.8310089111328,-697.7092128374567,-6.0995679020461164e-05,704.7008655292917,-0.399 -0.000i +0.917j -0.000k,1,0.0,-3.7706422497e-07,-0.0,-3.1415927410125732,0.7903835773468018,3.1415927410125732,0.0,0.09380999952554703,0.0,-1264.22998046875,0.0,833.969970703125,-97.66099548339844,0.0,757.7709350585938
363.660888671875,364.36090087890625,2100.219970703125,0.0,205.989990234375,-351.281005859375,0.0,218.531005859375,-696.6950325534457,-6.0907016560607965e-05,705.7035405688067,-0.399 -0.000i +0.917j -0.000k,1,0.0,-3.7706422497e-07,-0.0,-3.1415927410125732,0.7918217182159424,3.1415927410125732,0.0,0.08930999785661697,0.0,-1265.8499755859375,0.0,846.4599609375,-97.60099792480469,0.0,746.5509643554688
363.660888671875,364.3775634765625,2094.2099609375,0.0,209.6599884033203,-363.6610107421875,0.0,220.25100708007812,-695.6794534536523,-6.081823181239034e-05,706.7047145720934,-0.399 -0.000i +0.917j -0.000k,1,0.0,-3.7706422497e-07,-0.0,-3.1415927410125732,0.7932597994804382,3.1415927410125732,0.0,0.08500999957323074,0.0,-1267.469970703125,0.0,858.760009765625,-97.54100036621094,0.0,735.3309326171875
363.660888671875,364.39422607421875,2088.0,0.0,213.34999084472656,-376.02099609375,0.0,221.9810028076172,-694.6623934524544,-6.072931759965503e-05,707.7044684604613,-0.399 -0.000i +0.917j -0.000k,1,0.0,-3.7706422497e-07,-0.0,-3.1415927410125732,0.7946979403495789,3.1415927410125732,0.0,0.08090999722480774,0.0,-1269.0899658203125,0.0,870.8699951171875,-97.48099517822266,0.0,724.1109619140625
363.660888671875,364.410888671875,2081.579833984375,0.0,217.0699920654297,-388.3609924316406,0.0,223.7310028076172,-693.7798186354539,-6.065216045559157e-05,708.5696993310913,-0.399 -0.000i +0.917j -0.000k,1,0.0,-3.7706422497e-07,-0.0,-3.1415927410125732,0.7959442734718323,3.1415927410125732,0.0,0.07700999826192856,0.0,-1270.7099609375,0.0,882.7999877929688,-97.4209976196289,0.0,712.9109497070312
363.660888671875,364.4275817871094,2074.949951171875,0.0,220.8199920654297,-400.6910095214844,0.0,225.49099731445312,-692.8961238527594,-6.057490540101363e-05,709.4338708476064,-0.399 -0.000i +0.917j -0.000k,1,0.0,-3.7706422497e-07,-0.0,-3.1415927410125732,0.7971906661987305,3.1415927410125732,0.0,0.0733099952340126,0.0,-1272.3299560546875,0.0,894.5399780273438,-97.36100006103516,0.0,701.7109375
363.660888671875,364.4442443847656,2068.119873046875,0.0,224.59999084472656,-413.0010070800781,0.0,227.27099609375,-692.0794697050145,-6.05035112251162e-05,710.2305704268314,-0.399 -0.000i +0.917j -0.000k,1,0.0,-3.7706422497e-07,-0.0,-3.1415927410125732,0.7983411550521851,3.1415927410125732,0.0,0.06970999389886856,0.0,-1273.949951171875,0.0,906.0899658203125,-97.30099487304688,0.0,690.510986328125
363.660888671875,364.4609069824219,2061.08984375,0.0,228.4099884033203,-425.3009948730469,0.0,229.0709991455078,-691.2619418844289,-6.043204067031022e-05,711.0262887250827,-0.399 -0.000i +0.917j -0.000k,1,0.0,-3.7706422497e-07,-0.0,-3.1415927410125732,0.7994915843009949,3.1415927410125732,0.0,0.06630999594926834,0.0,-1275.5699462890625,0.0,917.4599609375,-97.24099731445312,0.0,679.3209838867188
363.660888671875,364.4775695800781,2053.83984375,0.0,232.25,-437.58099365234375,0.0,230.88099670410156,-690.5116775617676,-6.0366450477485566e-05,711.7549288251047,-0.399 -0.000i +0.917j -0.000k,1,0.0,-3.7706422497e-07,-0.0,-3.1415927410125732,0.8005462288856506,3.1415927410125732,0.0,0.06310999393463135,0.0,-1277.18994140625,0.0,928.6399536132812,-97.18099975585938,0.0,668.1409912109375
363.660888671875,364.4942321777344,2046.3900146484375,0.0,236.1199951171875,-449.8509826660156,0.0,232.7010040283203,-689.7606876674449,-6.0300796853169165e-05,712.4827361449047,-0.399 -0.000i +0.917j -0.000k,1,0.0,-3.7706422497e-07,-0.0,-3.1415927410125732,0.8016008138656616,3.1415927410125732,0.0,0.060009997338056564,0.0,-1278.8099365234375,0.0,939.6300048828125,-97.1209945678711,0.0,656.9609375
363.660888671875,364.5108947753906,2038.739990234375,0.0,240.01998901367188,-462.1109924316406,0.0,234.54100036621094,-689.07728455853,-6.024105185352464e-05,713.1437102446035,-0.399 -0.000i +0.917j -0.000k,1,0.0,-3.7706422497e-07,-0.0,-3.1415927410125732,0.8025595545768738,3.1415927410125732,0.0,0.05710999667644501,0.0,-1280.429931640625,0.0,950.4400024414062,-97.06099700927734,0.0,645.7809448242188
363.660888671875,364.5275573730469,2030.8900146484375,0.0,243.9499969482422,-474.3509826660156,0.0,236.38099670410156,-688.4616589242921,-6.0187232149138005e-05,713.7380470082904,-0.399 -0.000i +0.917j -0.000k,1,0.0,-3.7706422497e-07,-0.0,-3.1415927410125732,0.8034224510192871,3.1415927410125732,0.0,0.05430999770760536,0.0,-1282.0499267578125,0.0,961.0700073242188,-97.0009994506836,0.0,634.6209716796875
363.660888671875,364.54425048828125,2022.8399658203125,0.0,247.9199981689453,-486.59100341796875,0.0,238.24099731445312,-687.7770528949543,-6.0127381986845985e-05,714.3977750995081,-0.399 -0.000i +0.917j -0.000k,1,0.0,5.9684800098e-08,-0.0,-3.1415927410125732,0.8043811917304993,3.1415927410125732,0.0,0.05170999839901924,0.0,-1283.669921875,0.0,971.5099487304688,-96.94099426269531,0.0,623.4609375
363.660888671875,364.5609130859375,2014.5699462890625,0.0,251.9099884033203,-498.8110046386719,0.0,240.1110076904297,-687.2289128619806,-6.007946206133208e-05,714.925084804371,-0.399 -0.000i +0.917j -0.000k,1,0.0,5.9684800098e-08,-0.0,-3.1415927410125732,0.805148184299469,3.1415927410125732,0.0,0.049209997057914734,0.0,-1285.2899169921875,0.0,981.7599487304688,-96.88099670410156,0.0,612.3009643554688
363.660888671875,364.57757568359375,2006.0999755859375,0.0,255.9399871826172,-511.031005859375,0.0,241.99099731445312,-686.6117934224873,-6.002551176433724e-05,715.5177850264464,-0.399 -0.000i +0.917j -0.000k,1,0.0,5.9684800098e-08,-0.0,-3.1415927410125732,0.8060110211372375,3.1415927410125732,0.0,0.04680999740958214,0.0,-1286.909912109375,0.0,991.8299560546875,-96.82099914550781,0.0,601.1509399414062
363.660888671875,364.59423828125,1997.429931640625,0.0,259.989990234375,-523.23095703125,0.0,243.87100219726562,-686.1314202746602,-5.998351620831505e-05,715.9784421809601,-0.399 -0.000i +0.917j -0.000k,1,0.0,5.9684800098e-08,-0.0,-3.1415927410125732,0.8066821694374084,3.1415927410125732,0.0,0.044509995728731155,0.0,-1288.530029296875,0.0,1001.7099609375,-96.76099395751953,0.0,590.010986328125
363.660888671875,364.61090087890625,1988.5599365234375,0.0,264.0799865722656,-535.4309692382812,0.0,245.77099609375,-685.5820683659439,-5.9935490337254715e-05,716.5044892330197,-0.399 -0.000i +0.917j -0.000k,1,0.0,5.9684800098e-08,-0.0,-3.1415927410125732,0.8074491620063782,3.1415927410125732,0.0,0.04230999946594238,0.0,-1290.1500244140625,0.0,1011.3999633789062,-96.70099639892578,0.0,578.8709716796875
363.660888671875,364.6275634765625,1979.489990234375,0.0,268.1999816894531,-547.6109619140625,0.0,247.67100524902344,-685.1010759596406,-5.989344064393499e-05,716.9644142319333,-0.399 -0.000i +0.917j -0.000k,1,0.0,5.9684800098e-08,-0.0,-3.1415927410125732,0.8081202507019043,3.1415927410125732,0.0,0.040209997445344925,0.0,-1291.77001953125,0.0,1020.9099731445312,-96.64099884033203,0.0,567.73095703125
363.660888671875,364.6442565917969,1970.219970703125,0.0,272.3500061035156,-559.7909545898438,0.0,249.59100341796875,-684.6197322493978,-5.985136023864826e-05,717.4240571452559,-0.399 -0.000i +0.917j -0.000k,1,0.0,5.9684800098e-08,-0.0,-3.1415927410125732,0.8087913990020752,3.1415927410125732,0.0,0.03820999711751938,0.0,-1293.3800048828125,0.0,1030.22998046875,-96.58099365234375,0.0,556.6109619140625
363.660888671875,364.6609191894531,1960.72998046875,0.0,276.5400085449219,-571.9509887695312,0.0,251.51100158691406,-684.2069675945198,-5.981527520503155e-05,717.817721327015,-0.399 -0.000i +0.917j -0.000k,1,0.0,5.9684800098e-08,-0.0,-3.1415927410125732,0.8093665838241577,3.1415927410125732,0.0,0.036309998482465744,0.0,-1294.97998046875,0.0,1039.3699951171875,-96.52099609375,0.0,545.490966796875
363.660888671875,364.6775817871094,1951.0399169921875,0.0,280.75,-584.1109619140625,0.0,253.4409942626953,-683.7939337695497,-5.977916663981709e-05,718.2111887849986,-0.399 -0.000i +0.917j -0.000k,1,0.0,5.9684800098e-08,-0.0,-3.1415927410125732,0.809941828250885,3.1415927410125732,0.0,0.03450999781489372,0.0,-1296.5799560546875,0.0,1048.3199462890625,-96.46099853515625,0.0,534.3709716796875
363.660888671875,364.6942443847656,1941.14990234375,0.0,285.0,-596.2709350585938,0.0,255.38099670410156,-683.3806736729673,-5.974303829330925e-05,718.6044185824895,-0.399 -0.000i +0.917j -0.000k,1,0.0,5.9684800098e-08,-0.0,-3.1415927410125732,0.8105170726776123,3.1415927410125732,0.0,0.03280999884009361,0.0,-1298.179931640625,0.0,1057.0899658203125,-96.4010009765625,0.0,523.260986328125
363.660888671875,364.7109069824219,1931.0599365234375,0.0,289.2799987792969,-608.4109497070312,0.0,257.3210144042969,-683.0360960855932,-5.971291436269404e-05,718.9319487963713,-0.399 -0.000i +0.917j -0.000k,1,0.0,5.9684800098e-08,-0.0,-3.1415927410125732,0.8109964728355408,3.1415927410125732,0.0,0.031209999695420265,0.0,-1299.780029296875,0.0,1065.669921875,-96.34099578857422,0.0,512.1609497070312
363.660888671875,364.7275695800781,1920.7698974609375,0.0,293.5899963378906,-620.5509643554688,0.0,259.260986328125,-682.622421501241,-5.967674978051308e-05,719.3247425327306,-0.399 -0.000i +0.917j -0.000k,1,0.0,5.9684800098e-08,-0.0,-3.1415927410125732,0.8115717172622681,3.1415927410125732,0.0,0.029610000550746918,0.0,-1301.3800048828125,0.0,1074.0699462890625,-96.28099822998047,0.0,501.0610046386719
363.660888671875,364.7442321777344,1910.2799072265625,0.0,297.94000244140625,-632.6909790039062,0.0,261.22100830078125,-682.2775415721924,-5.964659941834816e-05,719.6518684907323,-0.399 -0.000i +0.917j -0.000k,1,0.0,5.9684800098e-08,-0.0,-3.1415927410125732,0.8120510578155518,3.1415927410125732,0.0,0.028209999203681946,0.0,-1302.97998046875,0.0,1082.280029296875,-96.22100067138672,0.0,489.96099853515625
363.660888671875,364.76092529296875,1899.5899658203125,0.0,302.32000732421875,-644.8109741210938,0.0,263.1809997558594,-682.0015075901946,-5.962246776026641e-05,719.9134664671155,-0.399 -0.000i +0.917j -0.000k,1,0.0,5.9684800098e-08,-0.0,-3.1415927410125732,0.8124345541000366,3.1415927410125732,0.0,0.026809999719262123,0.0,-1304.5799560546875,0.0,1090.3099365234375,-96.16099548339844,0.0,478.8710021972656
363.660888671875,364.777587890625,1888.699951171875,0.0,306.72998046875,-656.9309692382812,0.0,265.1409912109375,-681.6563026035647,-5.9592288980664086e-05,720.2403353581591,-0.399 -0.000i +0.917j -0.000k,1,0.0,5.9684800098e-08,-0.0,-3.1415927410125732,0.8129139542579651,3.1415927410125732,0.0,0.0254100002348423,0.0,-1306.179931640625,0.0,1098.1500244140625,-96.10099792480469,0.0,467.7909851074219
363.660888671875,364.79425048828125,1877.5999755859375,0.0,311.17999267578125,-669.0509643554688,0.0,267.1109924316406,-681.3800429923981,-5.9568137597453156e-05,720.5016950484395,-0.399 -0.000i +0.917j -0.000k,1,0.0,5.9684800098e-08,-0.0,-3.1415927410125732,0.81329745054245,3.1415927410125732,0.0,0.024210000410676003,0.0,-1307.780029296875,0.0,1105.8099365234375,-96.04100036621094,0.0,456.71099853515625
363.660888671875,364.8109130859375,1866.2899169921875,0.0,315.6499938964844,-681.1609497070312,0.0,269.09100341796875,-681.1036831710783,-5.954397745359204e-05,720.7629487749687,-0.399 -0.000i +0.917j -0.000k,1,0.0,5.9684800098e-08,-0.0,-3.1415927410125732,0.8136809468269348,3.1415927410125732,0.0,0.023010000586509705,0.0,-1309.3800048828125,0.0,1113.280029296875,-95.98099517822266,0.0,445.6310119628906
363.660888671875,364.82757568359375,1854.7799072265625,0.0,320.1600036621094,-693.260986328125,0.0,271.0710144042969,-680.8272231802497,-5.951980855263399e-05,721.0240964993247,-0.399 -0.000i +0.917j -0.000k,1,0.0,-1.456057652e-08,-0.0,-3.1415927410125732,0.8140644431114197,3.1415927410125732,0.0,0.021810000762343407,0.0,-1310.97998046875,0.0,1120.5699462890625,-95.9209976196289,0.0,434.57098388671875
363.660888671875,364.84423828125,1843.0699462890625,0.0,324.7099914550781,-705.3609619140625,0.0,273.0509948730469,-680.5506630605709,-5.949563089813351e-05,721.2851381831005,-0.399 -0.000i +0.917j -0.000k,1,0.0,-1.456057652e-08,-0.0,-3.1415927410125732,0.8144479393959045,3.1415927410125732,0.0,0.02071000076830387,0.0,-1312.5799560546875,0.0,1127.679931640625,-95.86100006103516,0.0,423.510986328125
363.660888671875,364.8609313964844,1831.159912109375,0.0,329.2799987792969,-717.4609375,0.0,275.041015625,-680.3431987875254,-5.947749379463242e-05,721.4808295578995,-0.399 -0.000i +0.917j -0.000k,1,0.0,-1.456057652e-08,-0.0,-3.1415927410125732,0.8147355318069458,3.1415927410125732,0.0,0.019710000604391098,0.0,-1314.179931640625,0.0,1134.5999755859375,-95.80099487304688,0.0,412.45098876953125
363.660888671875,364.8775939941406,1819.0499267578125,0.0,333.8899841308594,-729.5609741210938,0.0,277.041015625,-680.0664635480123,-5.9453300830669194e-05,721.7416855865381,-0.399 -0.000i +0.917j -0.000k,1,0.0,-1.456057652e-08,-0.0,-3.1415927410125732,0.8151190280914307,3.1415927410125732,0.0,0.018710000440478325,0.0,-1315.780029296875,0.0,1141.3399658203125,-95.74099731445312,0.0,401.4010009765625
363.660888671875,364.8942565917969,1806.739990234375,0.0,338.53997802734375,-741.6409301757812,0.0,279.041015625,-679.8588249646102,-5.943514848847216e-05,721.9372782130984,-0.399 -0.000i +0.917j -0.000k,1,0.0,-1.456057652e-08,-0.0,-3.1415927410125732,0.8154066801071167,3.1415927410125732,0.0,0.017710000276565552,0.0,-1317.3800048828125,0.0,1147.8900146484375,-95.68099975585938,0.0,390.3609924316406
363.660888671875,364.9109191894531,1794.22998046875,0.0,343.2099914550781,-753.720947265625,0.0,281.041015625,-679.6511731696543,-5.941699499128435e-05,722.1327705935446,-0.399 -0.000i +0.917j -0.000k,1,0.0,-1.456057652e-08,-0.0,-3.1415927410125732,0.815694272518158,3.1415927410125732,0.0,0.01671000011265278,0.0,-1318.97998046875,0.0,1154.260009765625,-95.6209945678711,0.0,379.32098388671875
363.660888671875,364.9275817871094,1781.52001953125,0.0,347.91998291015625,-765.8009643554688,0.0,283.041015625,-679.443422107045,-5.939883281584229e-05,722.328243744812,-0.399 -0.000i +0.917j -0.000k,1,0.0,-1.456057652e-08,-0.0,-3.1415927410125732,0.815981924533844,3.1415927410125732,0.0,0.01590999960899353,0.0,-1320.5799560546875,0.0,1160.449951171875,-95.56099700927734,0.0,368.281005859375
363.660888671875,364.9442443847656,1768.6099853515625,0.0,352.66998291015625,-777.8809814453125,0.0,285.041015625,-679.3049045183991,-5.9386723223163476e-05,722.4585124789139,-0.399 -0.000i +0.917j -0.000k,1,0.0,-1.456057652e-08,-0.0,-3.1415927410125732,0.8161736726760864,3.1415927410125732,0.0,0.015109999105334282,0.0,-1322.179931640625,0.0,1166.449951171875,-95.5009994506836,0.0,357.260986328125
363.660888671875,364.9609069824219,1755.5,0.0,357.44000244140625,-789.9609375,0.0,287.0509948730469,-679.0971028433338,-5.936855662303984e-05,722.6538455344906,-0.399 -0.000i +0.917j -0.000k,1,0.0,-1.456057652e-08,-0.0,-3.1415927410125732,0.8164612650871277,3.1415927410125732,0.0,0.014309999532997608,0.0,-1323.780029296875,0.0,1172.27001953125,-95.44099426269531,0.0,346.2409973144531
363.660888671875,364.97760009765625,1742.18994140625,0.0,362.25,-802.0309448242188,0.0,289.0710144042969,-678.958522827517,-5.9356441572804166e-05,722.7840478565315,-0.399 -0.000i +0.917j -0.000k,1,0.0,-1.456057652e-08,-0.0,-3.1415927410125732,0.8166530132293701,3.1415927410125732,0.0,0.01350999902933836,0.0,-1325.3699951171875,0.0,1177.9000244140625,-95.38099670410156,0.0,335.22100830078125
363.660888671875,364.9942626953125,1728.679931640625,0.0,367.1000061035156,-814.0909423828125,0.0,291.09100341796875,-678.8199178481942,-5.9344324340189424e-05,722.9142236037185,-0.399 -0.000i +0.917j -0.000k,1,0.0,-1.456057652e-08,-0.0,-3.1415927410125732,0.8168447613716125,3.1415927410125732,0.0,0.012709999457001686,0.0,-1326.949951171875,0.0,1183.3499755859375,-95.32099914550781,0.0,324.21099853515625
363.660888671875,365.01092529296875,1714.969970703125,0.0,371.9700012207031,-826.1509399414062,0.0,293.1109924316406,-678.6119420334448,-5.9326142516290484e-05,723.1094576103905,-0.399 -0.000i +0.917j -0.000k,1,0.0,-1.456057652e-08,-0.0,-3.1415927410125732,0.8171324133872986,3.1415927410125732,0.0,0.012109999544918537,0.0,-1328.530029296875,0.0,1188.6199951171875,-95.26099395751953,0.0,313.21099853515625
363.660888671875,365.027587890625,1701.0499267578125,0.0,376.8800048828125,-838.2109375,0.0,295.1310119628906,-678.4732746637784,-5.9314019829338436e-05,723.2395668953724,-0.399 -0.000i +0.917j -0.000k,1,0.0,-1.456057652e-08,-0.0,-3.1415927410125732,0.817324161529541,3.1415927410125732,0.0,0.011509999632835388,0.0,-1330.1099853515625,0.0,1193.699951171875,-95.20099639892578,0.0,302.21099853515625
363.660888671875,365.04425048828125,1686.919921875,0.0,381.8299865722656,-850.2709350585938,0.0,297.1510009765625,-678.3345823484478,-5.930189496156708e-05,723.369649588752,-0.399 -0.000i +0.917j -0.000k,1,0.0,-1.456057652e-08,-0.0,-3.1415927410125732,0.8175159096717834,3.1415927410125732,0.0,0.01090999972075224,0.0,-1331.68994140625,0.0,1198.5999755859375,-95.14099884033203,0.0,291.21099853515625
363.660888671875,365.0609130859375,1672.5899658203125,0.0,386.79998779296875,-862.3309326171875,0.0,299.1709899902344,-678.2652483977847,-5.9295833594851485e-05,723.4346607482169,-0.399 -0.000i +0.917j -0.000k,1,0.0,-1.456057652e-08,-0.0,-3.1415927410125732,0.8176117539405823,3.1415927410125732,0.0,0.01030999980866909,0.0,-1333.27001953125,0.0,1203.3199462890625,-95.08099365234375,0.0,280.2309875488281
363.660888671875,365.07757568359375,1658.0599365234375,0.0,391.80999755859375,-874.3909301757812,0.0,301.1910095214844,-678.1265186773949,-5.928370545702585e-05,723.5647035493603,-0.399 -0.000i +0.917j -0.000k,1,0.0,-1.456057652e-08,-0.0,-3.1415927410125732,0.8178035020828247,3.1415927410125732,0.0,0.009709998965263367,0.0,-1334.8499755859375,0.0,1207.8499755859375,-95.02099609375,0.0,269.2510070800781
363.660888671875,365.0942687988281,1643.3299560546875,0.0,396.8599853515625,-886.450927734375,0.0,303.21099853515625,-677.9877640240899,-5.9271575139495466e-05,723.6947197469467,-0.399 -0.000i +0.917j -0.000k,1,0.0,-1.456057652e-08,-0.0,-3.1415927410125732,0.8179952502250671,3.1415927410125732,0.0,0.009109999053180218,0.0,-1336.429931640625,0.0,1212.199951171875,-94.96099853515625,0.0,258.27099609375
363.660888671875,365.1109313964844,1628.4000244140625,0.0,401.94000244140625,-898.510986328125,0.0,305.2510070800781,-677.9183557794676,-5.926550727779542e-05,723.7597380714541,-0.399 -0.000i +0.917j -0.000k,1,0.0,-1.456057652e-08,-0.0,-3.1415927410125732,0.8180911540985107,3.1415927410125732,0.0,0.008509999141097069,0.0,-1338.010009765625,0.0,1216.3699951171875,-94.9010009765625,0.0,247.30099487304688
363.660888671875,365.1275939941406,1613.27001953125,0.0,407.04998779296875,-910.5609741210938,0.0,307.2909851074219,-677.779563732482,-5.925337369120554e-05,723.8897143506067,-0.399 -0.000i +0.917j -0.000k,1,0.0,-1.6074369818e-08,-0.0,-3.1415927410125732,0.8182829022407532,3.1415927410125732,0.0,0.00810999982059002,0.0,-1339.5899658203125,0.0,1220.3599853515625,-94.84099578857422,0.0,236.34100341796875
363.660888671875,365.1442565917969,1597.93994140625,0.0,412.1999816894531,-922.6009521484375,0.0,309.33099365234375,-677.7101799391421,-5.924730796710457e-05,723.9546723123294,-0.399 -0.000i +0.917j -0.000k,1,0.0,-1.6074369818e-08,-0.0,-3.1415927410125732,0.818378746509552,3.1415927410125732,0.0,0.007710000034421682,0.0,-1341.169921875,0.0,1224.159912109375,-94.78099822998047,0.0,225.38099670410156
363.660888671875,365.1609191894531,1582.409912109375,0.0,417.3800048828125,-934.6409301757812,0.0,311.3710021972656,-677.6407467653383,-5.9241237926026155e-05,724.0196640142526,-0.399 -0.000i +0.917j -0.000k,1,0.0,-1.6074369818e-08,-0.0,-3.1415927410125732,0.8184746503829956,3.1415927410125732,0.0,0.007309999782592058,0.0,-1342.75,0.0,1227.780029296875,-94.72100067138672,0.0,214.42100524902344
363.660888671875,365.1775817871094,1566.679931640625,0.0,422.5899963378906,-946.6809692382812,0.0,313.4110107421875,-677.5713505177052,-5.923517111313625e-05,724.0846086705677,-0.399 -0.000i +0.917j -0.000k,1,0.0,-1.6074369818e-08,-0.0,-3.1415927410125732,0.8185704946517944,3.1415927410125732,0.0,0.006909999996423721,0.0,-1344.3299560546875,0.0,1231.219970703125,-94.66099548339844,0.0,203.47100830078125
363.660888671875,365.19427490234375,1550.75,0.0,427.8399963378906,-958.720947265625,0.0,315.45098876953125,-677.4324961837658,-5.922303208124767e-05,724.214518406134,-0.399 -0.000i +0.917j -0.000k,1,0.0,-1.6074369818e-08,-0.0,-3.1415927410125732,0.8187622427940369,3.1415927410125732,0.0,0.006509999744594097,0.0,-1345.909912109375,0.0,1234.469970703125,-94.60099792480469,0.0,192.531005859375
363.660888671875,365.2109375,1534.6199951171875,0.0,433.1300048828125,-970.7609252929688,0.0,317.4909973144531,-677.3630380909927,-5.9216959861683704e-05,724.2794834759145,-0.399 -0.000i +0.917j -0.000k,1,0.0,-1.6074369818e-08,-0.0,-3.1415927410125732,0.8188581466674805,3.1415927410125732,0.0,0.00610999995842576,0.0,-1347.489990234375,0.0,1237.5399169921875,-94.54100036621094,0.0,181.59100341796875
363.660888671875,365.22760009765625,1518.2899169921875,0.0,438.44000244140625,-982.8009643554688,0.0,319.531005859375,-677.2936169424285,-5.9210890871885163e-05,724.3444015142518,-0.399 -0.000i +0.917j -0.000k,1,0.0,-1.6074369818e-08,-0.0,-3.1415927410125732,0.8189539909362793,3.1415927410125732,0.0,0.005709999706596136,0.0,-1349.0699462890625,0.0,1240.429931640625,-94.48099517822266,0.0,170.6510009765625
363.660888671875,365.2442626953125,1501.760009765625,0.0,443.78997802734375,-994.8409423828125,0.0,321.5710144042969,-677.2241463940009,-5.920481756341324e-05,724.4093532643777,-0.399 -0.000i +0.917j -0.000k,1,0.0,-1.6074369818e-08,-0.0,-3.1415927410125732,0.8190498948097229,3.1415927410125732,0.0,0.005309999920427799,0.0,-1350.6500244140625,0.0,1243.1400146484375,-94.4209976196289,0.0,159.7310028076172
363.660888671875,365.26092529296875,1485.0299072265625,0.0,449.17999267578125,-1006.8809814453125,0.0,323.6109924316406,-677.1547127988001,-5.919874748549513e-05,724.4742579901454,-0.399 -0.000i +0.917j -0.000k,1,0.0,-1.6074369818e-08,-0.0,-3.1415927410125732,0.8191457390785217,3.1415927410125732,0.0,0.004910000134259462,0.0,-1352.22998046875,0.0,1245.669921875,-94.36100006103516,0.0,148.81100463867188
363.660888671875,365.277587890625,1468.0999755859375,0.0,454.5999755859375,-1018.9209594726562,0.0,325.6510009765625,-677.1547127988001,-5.919874748549513e-05,724.4742579901454,-0.399 -0.000i +0.917j -0.000k,1,0.0,-1.6074369818e-08,-0.0,-3.1415927410125732,0.8191457390785217,3.1415927410125732,0.0,0.004509999882429838,0.0,-1353.8099365234375,0.0,1248.010009765625,-94.30099487304688,0.0,137.89100646972656
363.660888671875,365.2942810058594,1450.969970703125,0.0,460.04998779296875,-1030.9609375,0.0,327.6910095214844,-677.085229797272,-5.919267308833855e-05,724.5391964182284,-0.399 -0.000i +0.917j -0.000k,1,0.0,-1.6074369818e-08,-0.0,-3.1415927410125732,0.8192416429519653,3.1415927410125732,0.0,0.004309999756515026,0.0,-1355.3900146484375,0.0,1250.169921875,-94.24099731445312,0.0,126.98099517822266
363.660888671875,365.3109436035156,1433.6400146484375,0.0,465.53997802734375,-1043.0009765625,0.0,329.7309875488281,-677.0157837579872,-5.918660192252402e-05,724.60408782904,-0.399 -0.000i +0.917j -0.000k,1,0.0,-1.6074369818e-08,-0.0,-3.1415927410125732,0.8193374872207642,3.1415927410125732,0.0,0.004110000096261501,0.0,-1356.9599609375,0.0,1252.1500244140625,-94.18099975585938,0.0,116.08099365234375
363.660888671875,365.3276062011719,1416.1099853515625,0.0,471.05999755859375,-1055.0408935546875,0.0,331.77099609375,-676.9462883059132,-5.918052643690609e-05,724.6690129326932,-0.399 -0.000i +0.917j -0.000k,1,0.0,-1.6074369818e-08,-0.0,-3.1415927410125732,0.8194333910942078,3.1415927410125732,0.0,0.003909999970346689,0.0,-1358.52001953125,0.0,1253.949951171875,-94.1209945678711,0.0,105.18099975585938
363.660888671875,365.3442687988281,1398.3800048828125,0.0,476.6099853515625,-1067.0809326171875,0.0,333.8110046386719,-676.9462883059132,-5.918052643690609e-05,724.6690129326932,-0.399 -0.000i +0.917j -0.000k,1,0.0,-1.6074369818e-08,-0.0,-3.1415927410125732,0.8194333910942078,3.1415927410125732,0.0,0.003710000077262521,0.0,-1360.0799560546875,0.0,1255.5699462890625,-94.06099700927734,0.0,94.28099822998047
363.660888671875,365.3609313964844,1380.449951171875,0.0,482.1999816894531,-1079.1209716796875,0.0,335.85101318359375,-676.8768298250977,-5.9174454183418366e-05,724.7338910261628,-0.399 -0.000i +0.917j -0.000k,1,0.0,-1.6074369818e-08,-0.0,-3.1415927410125732,0.8195292353630066,3.1415927410125732,0.0,0.0035099999513477087,0.0,-1361.6400146484375,0.0,1257.0,-94.0009994506836,0.0,83.4010009765625
363.660888671875,365.3775939941406,1362.3199462890625,0.0,487.8299865722656,-1091.1610107421875,0.0,337.8909912109375,-676.8768298250977,-5.9174454183418366e-05,724.7338910261628,-0.399 -0.000i +0.917j -0.000k,1,0.0,-1.6074369818e-08,-0.0,-3.1415927410125732,0.8195292353630066,3.1415927410125732,0.0,0.0033100000582635403,0.0,-1363.199951171875,0.0,1258.25,-93.94099426269531,0.0,72.52099609375
363.660888671875,365.3942565917969,1343.989990234375,0.0,493.47998046875,-1103.200927734375,0.0,339.95098876953125,-676.807321925034,-5.9168377609562576e-05,724.7988028029989,-0.399 -0.000i +0.917j -0.000k,1,0.0,-1.6074369818e-08,-0.0,-3.1415927410125732,0.8196251392364502,3.1415927410125732,0.0,0.003109999932348728,0.0,-1364.760009765625,0.0,1259.3199462890625,-93.88099670410156,0.0,61.64099884033203
363.660888671875,365.41094970703125,1325.4599609375,0.0,499.16998291015625,-1115.240966796875,0.0,342.010986328125,-676.807321925034,-5.9168377609562576e-05,724.7988028029989,-0.399 -0.000i +0.917j -0.000k,1,0.0,-9.8681321847e-08,-0.0,-3.1415927410125732,0.8196251392364502,3.1415927410125732,0.0,0.0029100000392645597,0.0,-1366.3199462890625,0.0,1260.2099609375,-93.82099914550781,0.0,50.770999908447266
363.660888671875,365.4276123046875,1306.72998046875,0.0,504.8999938964844,-1127.27099609375,0.0,344.0710144042969,-676.7378510052413,-5.91623042686249e-05,724.8636675767414,-0.399 -0.000i +0.917j -0.000k,1,0.0,-9.8681321847e-08,-0.0,-3.1415927410125732,0.819720983505249,3.1415927410125732,0.0,0.0027099999133497477,0.0,-1367.8800048828125,0.0,1260.919921875,-93.76099395751953,0.0,39.9109992980957
363.660888671875,365.44427490234375,1287.7999267578125,0.0,510.6600036621094,-1139.2908935546875,0.0,346.1310119628906,-676.7378510052413,-5.91623042686249e-05,724.8636675767414,-0.399 -0.000i +0.917j -0.000k,1,0.0,-9.8681321847e-08,-0.0,-3.1415927410125732,0.819720983505249,3.1415927410125732,0.0,0.0025100000202655792,0.0,-1369.43994140625,0.0,1261.449951171875,-93.70099639892578,0.0,29.05099868774414
363.660888671875,365.4609375,1268.669921875,0.0,516.4500122070312,-1151.3109130859375,0.0,348.1910095214844,-676.6683738688511,-5.915623038421495e-05,724.9285256917964,-0.399 -0.000i +0.917j -0.000k,1,0.0,-9.8681321847e-08,-0.0,-3.1415927410125732,0.8198168277740479,3.1415927410125732,0.0,0.002310000127181411,0.0,-1371.0,0.0,1261.7999267578125,-93.64099884033203,0.0,18.19099998474121
363.660888671875,365.47760009765625,1249.3399658203125,0.0,522.2799682617188,-1163.3309326171875,0.0,350.2510070800781,-676.6683738688511,-5.915623038421495e-05,724.9285256917964,-0.399 -0.000i +0.917j -0.000k,1,0.0,-9.8681321847e-08,-0.0,-3.1415927410125732,0.8198168277740479,3.1415927410125732,0.0,0.0021100000012665987,0.0,-1372.5599365234375,0.0,1261.969970703125,-93.58099365234375,0.0,7.340999603271484
363.660888671875,365.4942626953125,1229.8099365234375,0.0,528.1499633789062,-1175.3509521484375,0.0,352.3110046386719,-676.5988473035271,-5.915015217859023e-05,724.9934174760034,-0.399 -0.000i +0.917j -0.000k,1,0.0,-9.8681321847e-08,-0.0,-3.1415927410125732,0.8199127316474915,3.1415927410125732,0.0,0.0019099998753517866,0.0,-1374.1199951171875,0.0,1261.9599609375,-93.52099609375,0.0,-3.490999937057495
363.660888671875,365.51092529296875,1210.0799560546875,0.0,534.0399780273438,-1187.3709716796875,0.0,354.3710021972656,-676.5988473035271,-5.915015217859023e-05,724.9934174760034,-0.399 -0.000i +0.917j -0.000k,1,0.0,-9.8681321847e-08,-0.0,-3.1415927410125732,0.8199127316474915,3.1415927410125732,0.0,0.0017099998658522964,0.0,-1375.679931640625,0.0,1261.77001953125,-93.46099853515625,0.0,-14.310999870300293
363.660888671875,365.5276184082031,1190.1500244140625,0.0,539.969970703125,-1199.3909912109375,0.0,356.4309997558594,-676.5988473035271,-5.915015217859023e-05,724.9934174760034,-0.399 -0.000i +0.917j -0.000k,1,0.0,-9.8681321847e-08,-0.0,-3.1415927410125732,0.8199127316474915,3.1415927410125732,0.0,0.001509999972768128,0.0,-1377.239990234375,0.0,1261.4000244140625,-93.4010009765625,0.0,-25.130998611450195
363.660888671875,365.5442810058594,1170.010009765625,0.0,545.9400024414062,-1211.410888671875,0.0,358.4909973144531,-676.5988473035271,-5.915015217859023e-05,724.9934174760034,-0.399 -0.000i +0.917j -0.000k,1,0.0,-9.8681321847e-08,-0.0,-3.1415927410125732,0.8199127316474915,3.1415927410125732,0.0,0.0013099999632686377,0.0,-1378.7999267578125,0.0,1260.8499755859375,-93.34099578857422,0.0,-35.94099807739258
363.660888671875,365.5609436035156,1149.6600341796875,0.0,551.9400024414062,-1223.430908203125,0.0,360.5509948730469,-676.5293577319917,-5.914407720706533e-05,725.0582622677543,-0.399 -0.000i +0.917j -0.000k,1,0.0,-9.8681321847e-08,-0.0,-3.1415927410125732,0.8200085759162903,3.1415927410125732,0.0,0.0011099999537691474,0.0,-1380.3599853515625,0.0,1260.1199951171875,-93.28099822998047,0.0,-46.740997314453125
363.660888671875,365.5776062011719,1129.1099853515625,0.0,557.969970703125,-1235.450927734375,0.0,362.6109924316406,-676.5293577319917,-5.914407720706533e-05,725.0582622677543,-0.399 -0.000i +0.917j -0.000k,1,0.0,-9.8681321847e-08,-0.0,-3.1415927410125732,0.8200085759162903,3.1415927410125732,0.0,0.000910000002477318,0.0,-1381.919921875,0.0,1259.2099609375,-93.22100067138672,0.0,-57.54099655151367
363.660888671875,365.5942687988281,1108.3599853515625,0.0,564.0399780273438,-1247.470947265625,0.0,364.6709899902344,-676.5293577319917,-5.914407720706533e-05,725.0582622677543,-0.399 -0.000i +0.917j -0.000k,1,0.0,-9.8681321847e-08,-0.0,-3.1415927410125732,0.8200085759162903,3.1415927410125732,0.0,0.0007099999929778278,0.0,-1383.47998046875,0.0,1258.1199951171875,-93.16099548339844,0.0,-68.34099578857422
363.660888671875,365.6109313964844,1087.4100341796875,0.0,570.1499633789062,-1259.490966796875,0.0,366.7309875488281,-676.5293577319917,-5.914407720706533e-05,725.0582622677543,-0.399 -0.000i +0.917j -0.000k,1,0.0,-9.8681321847e-08,-0.0,-3.1415927410125732,0.8200085759162903,3.1415927410125732,0.0,0.0005099999834783375,0.0,-1385.0399169921875,0.0,1256.8499755859375,-93.10099792480469,0.0,-79.13099670410156
363.660888671875,365.62762451171875,1066.260009765625,0.0,576.2799682617188,-1271.510986328125,0.0,368.7909851074219,-676.5293577319917,-5.914407720706533e-05,725.0582622677543,-0.399 -0.000i +0.917j -0.000k,1,0.0,-9.8681321847e-08,-0.0,-3.1415927410125732,0.8200085759162903,3.1415927410125732,0.0,0.0004099999787285924,0.0,-1386.5999755859375,0.0,1255.4000244140625,-93.04100036621094,0.0,-89.91099548339844
363.660888671875,365.644287109375,1044.9100341796875,0.0,582.4500122070312,-1283.531005859375,0.0,370.85101318359375,-676.5293577319917,-5.914407720706533e-05,725.0582622677543,-0.399 -0.000i +0.917j -0.000k,1,0.0,-9.8681321847e-08,-0.0,-3.1415927410125732,0.8200085759162903,3.1415927410125732,0.0,0.0004099999787285924,0.0,-1388.1500244140625,0.0,1253.77001953125,-92.98099517822266,0.0,-100.69099426269531
363.660888671875,365.66094970703125,1023.3599853515625,0.0,588.6599731445312,-1295.5509033203125,0.0,372.9110107421875,-676.5293577319917,-5.914407720706533e-05,725.0582622677543,-0.399 -0.000i +0.917j -0.000k,1,0.0,-9.8681321847e-08,-0.0,-3.1415927410125732,0.8200085759162903,3.1415927410125732,0.0,0.0004099999787285924,0.0,-1389.68994140625,0.0,1251.9599609375,-92.9209976196289,0.0,-111.47100067138672
363.660888671875,365.6776123046875,1001.6099853515625,0.0,594.8999633789062,-1307.5709228515625,0.0,374.97100830078125,-676.5293577319917,-5.914407720706533e-05,725.0582622677543,-0.399 -0.000i +0.917j -0.000k,1,0.0,-9.8681321847e-08,-0.0,-3.1415927410125732,0.8200085759162903,3.1415927410125732,0.0,0.0004099999787285924,0.0,-1391.22998046875,0.0,1249.969970703125,-92.86100006103516,0.0,-122.23099517822266
363.660888671875,365.69427490234375,979.6599731445312,0.0,601.1699829101562,-1319.5909423828125,0.0,377.031005859375,-676.5293577319917,-5.914407720706533e-05,725.0582622677543,-0.399 -0.000i +0.917j -0.000k,1,0.0,-9.8681321847e-08,-0.0,-3.1415927410125732,0.8200085759162903,3.1415927410125732,0.0,0.0004099999787285924,0.0,-1392.77001953125,0.0,1247.7999267578125,-92.80099487304688,0.0,-132.99099731445312
363.660888671875,365.7109375,957.5099487304688,0.0,607.47998046875,-1331.6109619140625,0.0,379.09100341796875,-676.5293577319917,-5.914407720706533e-05,725.0582622677543,-0.399 -0.000i +0.917j -0.000k,1,0.0,7.2544505612e-08,-0.0,-3.1415927410125732,0.8200085759162903,3.1415927410125732,0.0,0.0004099999787285924,0.0,-1394.3099365234375,0.0,1245.449951171875,-92.74099731445312,0.0,-143.75100708007812
363.660888671875,365.72760009765625,935.1599731445312,0.0,613.8299560546875,-1343.6309814453125,0.0,381.1510009765625,-676.5293577319917,-5.914407720706533e-05,725.0582622677543,-0.399 -0.000i +0.917j -0.000k,1,0.0,7.2544505612e-08,-0.0,-3.1415927410125732,0.8200085759162903,3.1415927410125732,0.0,0.0004099999787285924,0.0,-1395.8499755859375,0.0,1242.919921875,-92.68099975585938,0.0,-154.50100708007812
363.660888671875,365.7442932128906,912.6099853515625,0.0,620.2000122070312,-1355.6510009765625,0.0,383.21099853515625,-676.5293577319917,-5.914407720706533e-05,725.0582622677543,-0.399 -0.000i +0.917j -0.000k,1,0.0,7.2544505612e-08,-0.0,-3.1415927410125732,0.8200085759162903,3.1415927410125732,0.0,0.0004099999787285924,0.0,-1397.3900146484375,0.0,1240.2099609375,-92.6209945678711,0.0,-165.24099731445312
363.660888671875,365.7609558105469,889.8599853515625,0.0,626.6099853515625,-1367.6708984375,0.0,385.27099609375,-676.5293577319917,-5.914407720706533e-05,725.0582622677543,-0.399 -0.000i +0.917j -0.000k,1,0.0,7.2544505612e-08,-0.0,-3.1415927410125732,0.8200085759162903,3.1415927410125732,0.0,0.0004099999787285924,0.0,-1398.929931640625,0.0,1237.3199462890625,-92.56099700927734,0.0,-175.9810028076172
363.660888671875,365.7776184082031,866.9099731445312,0.0,633.0599975585938,-1379.69091796875,0.0,387.33099365234375,-676.5293577319917,-5.914407720706533e-05,725.0582622677543,-0.399 -0.000i +0.917j -0.000k,1,0.0,7.2544505612e-08,-0.0,-3.1415927410125732,0.8200085759162903,3.1415927410125732,0.0,0.0004099999787285924,0.0,-1400.469970703125,0.0,1234.25,-92.5009994506836,0.0,-186.72100830078125
363.660888671875,365.7942810058594,843.760009765625,0.0,639.5399780273438,-1391.7109375,0.0,389.3909912109375,-676.5293577319917,-5.914407720706533e-05,725.0582622677543,-0.399 -0.000i +0.917j -0.000k,1,0.0,7.2544505612e-08,-0.0,-3.1415927410125732,0.8200085759162903,3.1415927410125732,0.0,0.0004099999787285924,0.0,-1402.010009765625,0.0,1231.0,-92.44099426269531,0.0,-197.4510040283203
363.660888671875,365.8109436035156,820.4099731445312,0.0,646.0499877929688,-1403.73095703125,0.0,391.45098876953125,-676.5293577319917,-5.914407720706533e-05,725.0582622677543,-0.399 -0.000i +0.917j -0.000k,1,0.0,7.2544505612e-08,-0.0,-3.1415927410125732,0.8200085759162903,3.1415927410125732,0.0,0.0004099999787285924,0.0,-1403.5499267578125,0.0,1227.5799560546875,-92.38099670410156,0.0,-208.17100524902344
363.660888671875,365.8276062011719,796.8599853515625,0.0,652.5999755859375,-1415.7509765625,0.0,393.510986328125,-676.5293577319917,-5.914407720706533e-05,725.0582622677543,-0.399 -0.000i +0.917j -0.000k,1,0.0,7.2544505612e-08,-0.0,-3.1415927410125732,0.8200085759162903,3.1415927410125732,0.0,0.0004099999787285924,0.0,-1405.0899658203125,0.0,1223.97998046875,-92.32099914550781,0.0,-218.89100646972656
363.660888671875,365.84429931640625,773.1099853515625,0.0,659.1900024414062,-1427.77099609375,0.0,395.57098388671875,-676.5293577319917,-5.914407720706533e-05,725.0582622677543,-0.399 -0.000i +0.917j -0.000k,1,0.0,7.2544505612e-08,-0.0,-3.1415927410125732,0.8200085759162903,3.1415927410125732,0.0,0.0004099999787285924,0.0,-1406.6300048828125,0.0,1220.199951171875,-92.26099395751953,0.0,-229.6110076904297
363.660888671875,365.8609619140625,749.1599731445312,0.0,665.8099975585938,-1439.7908935546875,0.0,397.6310119628906,-676.5293577319917,-5.914407720706533e-05,725.0582622677543,-0.399 -0.000i +0.917j -0.000k,1,0.0,7.2544505612e-08,-0.0,-3.1415927410125732,0.8200085759162903,3.1415927410125732,0.0,0.0004099999787285924,0.0,-1408.169921875,0.0,1216.239990234375,-92.20099639892578,0.0,-240.31100463867188
363.660888671875,365.87762451171875,725.010009765625,0.0,672.4599609375,-1451.8109130859375,0.0,399.6910095214844,-676.5293577319917,-5.914407720706533e-05,725.0582622677543,-0.399 -0.000i +0.917j -0.000k,1,0.0,7.2544505612e-08,-0.0,-3.1415927410125732,0.8200085759162903,3.1415927410125732,0.0,0.0004099999787285924,0.0,-1409.7099609375,0.0,1212.0999755859375,-92.14099884033203,0.0,-251.01100158691406
363.660888671875,365.894287109375,700.6599731445312,0.0,679.1499633789062,-1463.8309326171875,0.0,401.7510070800781,-676.5293577319917,-5.914407720706533e-05,725.0582622677543,-0.399 -0.000i +0.917j -0.000k,1,0.0,7.2544505612e-08,-0.0,-3.1415927410125732,0.8200085759162903,3.1415927410125732,0.0,0.0004099999787285924,0.0,-1411.25,0.0,1207.780029296875,-92.08099365234375,0.0,-261.71099853515625
363.660888671875,365.91094970703125,676.1099853515625,0.0,685.8800048828125,-1475.8509521484375,0.0,403.8110046386719,-676.5293577319917,-5.914407720706533e-05,725.0582622677543,-0.399 -0.000i +0.917j -0.000k,1,0.0,7.2544505612e-08,-0.0,-3.1415927410125732,0.8200085759162903,3.1415927410125732,0.0,0.0004099999787285924,0.0,-1412.7899169921875,0.0,1203.280029296875,-92.02099609375,0.0,-272.4010009765625
363.660888671875,365.9276123046875,651.3599853515625,0.0,692.6300048828125,-1487.8709716796875,0.0,405.8710021972656,-676.5293577319917,-5.914407720706533e-05,725.0582622677543,-0.399 -0.000i +0.917j -0.000k,1,0.0,7.2544505612e-08,-0.0,-3.1415927410125732,0.8200085759162903,3.1415927410125732,0.0,0.0004099999787285924,0.0,-1414.3299560546875,0.0,1198.6099853515625,-91.96099853515625,0.0,-283.08099365234375
363.660888671875,365.94427490234375,626.4099731445312,0.0,699.4199829101562,-1499.8909912109375,0.0,407.9309997558594,-676.5293577319917,-5.914407720706533e-05,725.0582622677543,-0.399 -0.000i +0.917j -0.000k,1,0.0,7.2544505612e-08,-0.0,-3.1415927410125732,0.8200085759162903,3.1415927410125732,0.0,0.0004099999787285924,0.0,-1415.8699951171875,0.0,1193.760009765625,-91.9010009765625,0.0,-293.760986328125
363.660888671875,365.9609680175781,601.260009765625,0.0,706.25,-1511.910888671875,0.0,409.9909973144531,-676.5293577319917,-5.914407720706533e-05,725.0582622677543,-0.399 -0.000i +0.917j -0.000k,1,0.0,7.2544505612e-08,-0.0,-3.1415927410125732,0.8200085759162903,3.1415927410125732,0.0,0.0004099999787285924,0.0,-1417.409912109375,0.0,1188.72998046875,-91.84099578857422,0.0,-304.4410095214844
363.660888671875,365.9776306152344,575.9099731445312,0.0,713.1099853515625,-1523.930908203125,0.0,412.0509948730469,-676.5293577319917,-5.914407720706533e-05,725.0582622677543,-0.399 -0.000i +0.917j -0.000k,1,0.0,7.2544505612e-08,-0.0,-3.1415927410125732,0.8200085759162903,3.1415927410125732,0.0,0.0004099999787285924,0.0,-1418.929931640625,0.0,1183.52001953125,-91.78099822998047,0.0,-315.1109924316406
363.660888671875,365.9942932128906,550.3599853515625,0.0,720.0,-1535.950927734375,0.0,414.1109924316406,-676.5293577319917,-5.914407720706533e-05,725.0582622677543,-0.399 -0.000i +0.917j -0.000k,1,0.0,-3.3174738996e-07,-0.0,-3.1415927410125732,0.8200085759162903,3.1415927410125732,0.0,0.0004099999787285924,0.0,-1420.449951171875,0.0,1178.1400146484375,-91.72100067138672,0.0,-325.77099609375
363.660888671875,366.0109558105469,524.6099853515625,0.0,726.9299926757812,-1547.970947265625,0.0,416.1709899902344,-676.5293577319917,-5.914407720706533e-05,725.0582622677543,-0.399 -0.000i +0.917j -0.000k,1,0.0,-3.3174738996e-07,-0.0,-3.1415927410125732,0.8200085759162903,3.1415927410125732,0.0,0.0004099999787285924,0.0,-1421.969970703125,0.0,1172.5799560546875,-91.66099548339844,0.0,-336.4309997558594
363.660888671875,366.0276184082031,498.6600036621094,0.0,733.8999633789062,-1559.990966796875,0.0,418.2309875488281,-676.5293577319917,-5.914407720706533e-05,725.0582622677543,-0.399 -0.000i +0.917j -0.000k,1,0.0,-3.3174738996e-07,-0.0,-3.1415927410125732,0.8200085759162903,3.1415927410125732,0.0,0.0004099999787285924,0.0,-1423.489990234375,0.0,1166.8399658203125,-91.60099792480469,0.0,-347.09100341796875
363.660888671875,366.0442810058594,472.5099792480469,0.0,740.8899536132812,-1572.010986328125,0.0,420.2909851074219,-676.5293577319917,-5.914407720706533e-05,725.0582622677543,-0.399 -0.000i +0.917j -0.000k,1,0.0,-3.3174738996e-07,-0.0,-3.1415927410125732,0.8200085759162903,3.1415927410125732,0.0,0.0004099999787285924,0.0,-1425.010009765625,0.0,1160.919921875,-91.54100036621094,0.0,-357.7309875488281
363.660888671875,366.0609436035156,446.1600036621094,0.0,747.9199829101562,-1584.0308837890625,0.0,422.3509826660156,-676.5293577319917,-5.914407720706533e-05,725.0582622677543,-0.399 -0.000i +0.917j -0.000k,1,0.0,-3.3174738996e-07,-0.0,-3.1415927410125732,0.8200085759162903,3.1415927410125732,0.0,0.0004099999787285924,0.0,-1426.5299072265625,0.0,1154.8199462890625,-91.48099517822266,0.0,-368.3710021972656
363.660888671875,366.07763671875,419.6099853515625,0.0,754.989990234375,-1596.0509033203125,0.0,424.4110107421875,-676.5293577319917,-5.914407720706533e-05,725.0582622677543,-0.399 -0.000i +0.917j -0.000k,1,0.0,-3.3174738996e-07,-0.0,-3.1415927410125732,0.8200085759162903,3.1415927410125732,0.0,0.0004099999787285924,0.0,-1428.0499267578125,0.0,1148.5499267578125,-91.4209976196289,0.0,-379.010986328125
363.660888671875,366.09429931640625,392.8599853515625,0.0,762.0899658203125,-1608.0709228515625,0.0,426.47100830078125,-676.5293577319917,-5.914407720706533e-05,725.0582622677543,-0.399 -0.000i +0.917j -0.000k,1,0.0,-3.3174738996e-07,-0.0,-3.1415927410125732,0.8200085759162903,3.1415927410125732,0.0,0.0004099999787285924,0.0,-1429.5699462890625,0.0,1142.0999755859375,-91.36100006103516,0.0,-389.6510009765625
363.660888671875,366.1109619140625,365.9100036621094,0.0,769.219970703125,-1620.0909423828125,0.0,428.531005859375,-676.5293577319917,-5.914407720706533e-05,725.0582622677543,-0.399 -0.000i +0.917j -0.000k,1,0.0,-3.3174738996e-07,-0.0,-3.1415927410125732,0.8200085759162903,3.1415927410125732,0.0,0.0004099999787285924,0.0,-1431.0899658203125,0.0,1135.469970703125,-91.30099487304688,0.0,-400.27099609375
